[
  {
    "id": "PV-JS-001",
    "name": "东泉新村屋顶光伏",
    "address": "上海市金山区石化街道石化大道280号",
    "street": "石化街道",
    "lat": 30.730596,
    "lon": 121.327782,
    "capacity_kw": 5,
    "status": "运行"
  },
  {
    "id": "PV-JS-002",
    "name": "临潮苑居民光伏电站",
    "address": "上海市金山区石化街道前进路14号",
    "street": "石化街道",
    "lat": 30.724548,
    "lon": 121.331506,
    "capacity_kw": 27,
    "status": "运行"
  },
  {
    "id": "PV-JS-003",
    "name": "前进路商铺屋顶光伏",
    "address": "上海市金山区石化街道前进路143号",
    "street": "石化街道",
    "lat": 30.742598,
    "lon": 121.331018,
    "capacity_kw": 104,
    "status": "运行"
  },
  {
    "id": "PV-JS-004",
    "name": "石化东泉新村分布式光伏",
    "address": "上海市金山区石化街道卫零路53号",
    "street": "石化街道",
    "lat": 30.73441,
    "lon": 121.328419,
    "capacity_kw": 16,
    "status": "停运"
  },
  {
    "id": "PV-JS-005",
    "name": "石化临潮苑分布式光伏",
    "address": "上海市金山区石化街道松卫南路236号",
    "street": "石化街道",
    "lat": 30.744949,
    "lon": 121.354485,
    "capacity_kw": 7,
    "status": "运行"
  },
  {
    "id": "PV-JS-006",
    "name": "卫清苑屋顶光伏",
    "address": "上海市金山区石化街道前进路186号",
    "street": "石化街道",
    "lat": 30.742882,
    "lon": 121.355376,
    "capacity_kw": 6,
    "status": "运行"
  },
  {
    "id": "PV-JS-007",
    "name": "石化东泉新村分布式光伏",
    "address": "上海市金山区石化街道石化大道120号",
    "street": "石化街道",
    "lat": 30.747251,
    "lon": 121.353123,
    "capacity_kw": 25,
    "status": "运行"
  },
  {
    "id": "PV-JS-008",
    "name": "桥英花苑居民光伏电站",
    "address": "上海市金山区石化街道卫零路108号",
    "street": "石化街道",
    "lat": 30.754164,
    "lon": 121.328706,
    "capacity_kw": 25,
    "status": "运行"
  },
  {
    "id": "PV-JS-009",
    "name": "石化山鑫阳光城分布式光伏",
    "address": "上海市金山区石化街道板桥东路126号",
    "street": "石化街道",
    "lat": 30.723656,
    "lon": 121.347599,
    "capacity_kw": 25,
    "status": "运行"
  },
  {
    "id": "PV-JS-010",
    "name": "金山石化精密仪器光伏项目",
    "address": "上海市金山区石化街道卫零路29号",
    "street": "石化街道",
    "lat": 30.748326,
    "lon": 121.330985,
    "capacity_kw": 101,
    "status": "运行"
  },
  {
    "id": "PV-JS-011",
    "name": "前进路商铺屋顶光伏",
    "address": "上海市金山区石化街道前进路162号",
    "street": "石化街道",
    "lat": 30.73151,
    "lon": 121.330639,
    "capacity_kw": 108,
    "status": "运行"
  },
  {
    "id": "PV-JS-012",
    "name": "临潮苑居民光伏电站",
    "address": "上海市金山区石化街道松卫南路288号",
    "street": "石化街道",
    "lat": 30.726515,
    "lon": 121.327785,
    "capacity_kw": 18,
    "status": "运行"
  },
  {
    "id": "PV-JS-013",
    "name": "朱泾镇张家庭光伏",
    "address": "上海市金山区朱泾镇罗星路71号",
    "street": "朱泾镇",
    "lat": 30.910613,
    "lon": 121.169576,
    "capacity_kw": 8,
    "status": "运行"
  },
  {
    "id": "PV-JS-014",
    "name": "马宅屋顶光伏电站",
    "address": "上海市金山区朱泾镇沈浦泾路217号",
    "street": "朱泾镇",
    "lat": 30.880814,
    "lon": 121.159999,
    "capacity_kw": 24,
    "status": "运行"
  },
  {
    "id": "PV-JS-015",
    "name": "朱泾镇居民刘户光伏",
    "address": "上海市金山区朱泾镇南圩路6号",
    "street": "朱泾镇",
    "lat": 30.914545,
    "lon": 121.174765,
    "capacity_kw": 22,
    "status": "停运"
  },
  {
    "id": "PV-JS-016",
    "name": "大茫村光伏扶贫项目",
    "address": "上海市金山区朱泾镇大茫村新汇路58号",
    "street": "朱泾镇",
    "lat": 30.904735,
    "lon": 121.184344,
    "capacity_kw": 5,
    "status": "运行"
  },
  {
    "id": "PV-JS-017",
    "name": "朱泾镇林家庭光伏",
    "address": "上海市金山区朱泾镇人民路257号",
    "street": "朱泾镇",
    "lat": 30.912853,
    "lon": 121.188634,
    "capacity_kw": 25,
    "status": "运行"
  },
  {
    "id": "PV-JS-018",
    "name": "朱泾镇温河村光伏电站",
    "address": "上海市金山区朱泾镇温河村健康路102号",
    "street": "朱泾镇",
    "lat": 30.886638,
    "lon": 121.179158,
    "capacity_kw": 22,
    "status": "运行"
  },
  {
    "id": "PV-JS-019",
    "name": "待泾村农户屋顶光伏",
    "address": "上海市金山区朱泾镇待泾村众安街166号",
    "street": "朱泾镇",
    "lat": 30.91284,
    "lon": 121.190497,
    "capacity_kw": 30,
    "status": "运行"
  },
  {
    "id": "PV-JS-020",
    "name": "牡丹村分布式光伏",
    "address": "上海市金山区朱泾镇牡丹村健康路41号",
    "street": "朱泾镇",
    "lat": 30.887001,
    "lon": 121.155917,
    "capacity_kw": 29,
    "status": "运行"
  },
  {
    "id": "PV-JS-021",
    "name": "朱泾镇工业光伏项目",
    "address": "上海市金山区朱泾镇沈浦泾路244号",
    "street": "朱泾镇",
    "lat": 30.896008,
    "lon": 121.15863,
    "capacity_kw": 158,
    "status": "运行"
  },
  {
    "id": "PV-JS-022",
    "name": "朱泾镇居民马户光伏",
    "address": "上海市金山区朱泾镇亭枫公路103号",
    "street": "朱泾镇",
    "lat": 30.913275,
    "lon": 121.190757,
    "capacity_kw": 25,
    "status": "运行"
  },
  {
    "id": "PV-JS-023",
    "name": "待泾村农户屋顶光伏",
    "address": "上海市金山区朱泾镇待泾村新农路62号",
    "street": "朱泾镇",
    "lat": 30.889637,
    "lon": 121.189585,
    "capacity_kw": 5,
    "status": "运行"
  },
  {
    "id": "PV-JS-024",
    "name": "五龙村分布式光伏",
    "address": "上海市金山区朱泾镇五龙村罗星路4号",
    "street": "朱泾镇",
    "lat": 30.898232,
    "lon": 121.162805,
    "capacity_kw": 12,
    "status": "运行"
  },
  {
    "id": "PV-JS-025",
    "name": "枫泾镇居民周户光伏",
    "address": "上海市金山区枫泾镇友好街37号",
    "street": "枫泾镇",
    "lat": 30.873796,
    "lon": 120.988457,
    "capacity_kw": 20,
    "status": "运行"
  },
  {
    "id": "PV-JS-026",
    "name": "枫泾镇朱家庭光伏",
    "address": "上海市金山区枫泾镇枫丽路125号",
    "street": "枫泾镇",
    "lat": 30.879669,
    "lon": 120.992492,
    "capacity_kw": 8,
    "status": "运行"
  },
  {
    "id": "PV-JS-027",
    "name": "盛新村分布式光伏",
    "address": "上海市金山区枫泾镇盛新村新华路211号",
    "street": "枫泾镇",
    "lat": 30.874977,
    "lon": 121.004442,
    "capacity_kw": 26,
    "status": "运行"
  },
  {
    "id": "PV-JS-028",
    "name": "枫泾镇刘家庭光伏",
    "address": "上海市金山区枫泾镇白牛路207号",
    "street": "枫泾镇",
    "lat": 30.897238,
    "lon": 121.013047,
    "capacity_kw": 11,
    "status": "运行"
  },
  {
    "id": "PV-JS-029",
    "name": "菖梧村分布式光伏",
    "address": "上海市金山区枫泾镇菖梧村新华路94号",
    "street": "枫泾镇",
    "lat": 30.878708,
    "lon": 121.005145,
    "capacity_kw": 19,
    "status": "运行"
  },
  {
    "id": "PV-JS-030",
    "name": "枫泾镇何家庭光伏",
    "address": "上海市金山区枫泾镇泾波路26号",
    "street": "枫泾镇",
    "lat": 30.903421,
    "lon": 121.021439,
    "capacity_kw": 7,
    "status": "运行"
  },
  {
    "id": "PV-JS-031",
    "name": "菖梧村光伏扶贫项目",
    "address": "上海市金山区枫泾镇菖梧村新枫路209号",
    "street": "枫泾镇",
    "lat": 30.908155,
    "lon": 121.021148,
    "capacity_kw": 6,
    "status": "运行"
  },
  {
    "id": "PV-JS-032",
    "name": "胡氏精密仪器公司光伏电站",
    "address": "上海市金山区枫泾镇新华路136号",
    "street": "枫泾镇",
    "lat": 30.877685,
    "lon": 120.987286,
    "capacity_kw": 158,
    "status": "运行"
  },
  {
    "id": "PV-JS-033",
    "name": "鸿雁村分布式光伏",
    "address": "上海市金山区张堰镇鸿雁村百家村路80号",
    "street": "张堰镇",
    "lat": 30.853464,
    "lon": 121.21092,
    "capacity_kw": 23,
    "status": "运行"
  },
  {
    "id": "PV-JS-034",
    "name": "张堰镇甪里村光伏电站",
    "address": "上海市金山区张堰镇甪里村张堰路30号",
    "street": "张堰镇",
    "lat": 30.855029,
    "lon": 121.184138,
    "capacity_kw": 6,
    "status": "运行"
  },
  {
    "id": "PV-JS-035",
    "name": "赵宅屋顶光伏电站",
    "address": "上海市金山区张堰镇留溪路36号",
    "street": "张堰镇",
    "lat": 30.864031,
    "lon": 121.184904,
    "capacity_kw": 8,
    "status": "运行"
  },
  {
    "id": "PV-JS-036",
    "name": "旧港村农户屋顶光伏",
    "address": "上海市金山区张堰镇旧港村东贤路42号",
    "street": "张堰镇",
    "lat": 30.863264,
    "lon": 121.204487,
    "capacity_kw": 13,
    "status": "停运"
  },
  {
    "id": "PV-JS-037",
    "name": "秦望村光伏扶贫项目",
    "address": "上海市金山区张堰镇秦望村秦弯路136号",
    "street": "张堰镇",
    "lat": 30.83377,
    "lon": 121.210348,
    "capacity_kw": 15,
    "status": "运行"
  },
  {
    "id": "PV-JS-038",
    "name": "张堰镇高家庭光伏",
    "address": "上海市金山区张堰镇东贤路235号",
    "street": "张堰镇",
    "lat": 30.862761,
    "lon": 121.219129,
    "capacity_kw": 7,
    "status": "运行"
  },
  {
    "id": "PV-JS-039",
    "name": "孙氏化工公司光伏电站",
    "address": "上海市金山区张堰镇留溪路179号",
    "street": "张堰镇",
    "lat": 30.847105,
    "lon": 121.201935,
    "capacity_kw": 90,
    "status": "运行"
  },
  {
    "id": "PV-JS-040",
    "name": "旧港村农户屋顶光伏",
    "address": "上海市金山区张堰镇旧港村康德路271号",
    "street": "张堰镇",
    "lat": 30.843127,
    "lon": 121.203429,
    "capacity_kw": 26,
    "status": "运行"
  },
  {
    "id": "PV-JS-041",
    "name": "亭林镇生物科技厂屋顶光伏",
    "address": "上海市金山区亭林镇大慈路60号",
    "street": "亭林镇",
    "lat": 30.868043,
    "lon": 121.298425,
    "capacity_kw": 119,
    "status": "运行"
  },
  {
    "id": "PV-JS-042",
    "name": "亭林镇居民周户光伏",
    "address": "上海市金山区亭林镇亭朱公路105号",
    "street": "亭林镇",
    "lat": 30.87517,
    "lon": 121.271725,
    "capacity_kw": 20,
    "status": "运行"
  },
  {
    "id": "PV-JS-043",
    "name": "亭林镇周家庭光伏",
    "address": "上海市金山区亭林镇亭林路48号",
    "street": "亭林镇",
    "lat": 30.873945,
    "lon": 121.299626,
    "capacity_kw": 5,
    "status": "运行"
  },
  {
    "id": "PV-JS-044",
    "name": "亭林镇居民何户光伏",
    "address": "上海市金山区亭林镇大慈路83号",
    "street": "亭林镇",
    "lat": 30.877242,
    "lon": 121.268533,
    "capacity_kw": 18,
    "status": "运行"
  },
  {
    "id": "PV-JS-045",
    "name": "亭林镇亭西村光伏电站",
    "address": "上海市金山区亭林镇亭西村寺平北路280号",
    "street": "亭林镇",
    "lat": 30.886336,
    "lon": 121.267775,
    "capacity_kw": 18,
    "status": "运行"
  },
  {
    "id": "PV-JS-046",
    "name": "后岗村分布式光伏",
    "address": "上海市金山区亭林镇后岗村亭林路184号",
    "street": "亭林镇",
    "lat": 30.868998,
    "lon": 121.27563,
    "capacity_kw": 16,
    "status": "运行"
  },
  {
    "id": "PV-JS-047",
    "name": "亭林镇化工厂屋顶光伏",
    "address": "上海市金山区亭林镇华亭路80号",
    "street": "亭林镇",
    "lat": 30.895105,
    "lon": 121.298665,
    "capacity_kw": 155,
    "status": "运行"
  },
  {
    "id": "PV-JS-048",
    "name": "赵氏光电科技公司光伏电站",
    "address": "上海市金山区亭林镇亭朱公路211号",
    "street": "亭林镇",
    "lat": 30.864891,
    "lon": 121.292763,
    "capacity_kw": 90,
    "status": "运行"
  },
  {
    "id": "PV-JS-049",
    "name": "驳岸村农户屋顶光伏",
    "address": "上海市金山区亭林镇驳岸村亭林路241号",
    "street": "亭林镇",
    "lat": 30.895395,
    "lon": 121.267624,
    "capacity_kw": 14,
    "status": "运行"
  },
  {
    "id": "PV-JS-050",
    "name": "马宅屋顶光伏电站",
    "address": "上海市金山区亭林镇复兴路13号",
    "street": "亭林镇",
    "lat": 30.896721,
    "lon": 121.298153,
    "capacity_kw": 13,
    "status": "运行"
  },
  {
    "id": "PV-JS-051",
    "name": "吕巷镇居民马户光伏",
    "address": "上海市金山区吕巷镇朱吕公路180号",
    "street": "吕巷镇",
    "lat": 30.863974,
    "lon": 121.124276,
    "capacity_kw": 22,
    "status": "运行"
  },
  {
    "id": "PV-JS-052",
    "name": "吕巷镇周家庭光伏",
    "address": "上海市金山区吕巷镇朱吕公路92号",
    "street": "吕巷镇",
    "lat": 30.842646,
    "lon": 121.086704,
    "capacity_kw": 8,
    "status": "运行"
  },
  {
    "id": "PV-JS-053",
    "name": "颜圩村分布式光伏",
    "address": "上海市金山区吕巷镇颜圩村荡田路161号",
    "street": "吕巷镇",
    "lat": 30.853263,
    "lon": 121.099427,
    "capacity_kw": 17,
    "status": "运行"
  },
  {
    "id": "PV-JS-054",
    "name": "吕巷镇颜圩村光伏电站",
    "address": "上海市金山区吕巷镇颜圩村吕巷路224号",
    "street": "吕巷镇",
    "lat": 30.86538,
    "lon": 121.093203,
    "capacity_kw": 16,
    "status": "运行"
  },
  {
    "id": "PV-JS-055",
    "name": "吕巷镇居民刘户光伏",
    "address": "上海市金山区吕巷镇朱吕公路161号",
    "street": "吕巷镇",
    "lat": 30.846652,
    "lon": 121.123555,
    "capacity_kw": 14,
    "status": "运行"
  },
  {
    "id": "PV-JS-056",
    "name": "吕巷镇何家庭光伏",
    "address": "上海市金山区吕巷镇朱吕公路207号",
    "street": "吕巷镇",
    "lat": 30.849685,
    "lon": 121.112276,
    "capacity_kw": 11,
    "status": "运行"
  },
  {
    "id": "PV-JS-057",
    "name": "吴宅屋顶光伏电站",
    "address": "上海市金山区吕巷镇璜溪路90号",
    "street": "吕巷镇",
    "lat": 30.846218,
    "lon": 121.123215,
    "capacity_kw": 22,
    "status": "运行"
  },
  {
    "id": "PV-JS-058",
    "name": "廊下镇居民罗户光伏",
    "address": "上海市金山区廊下镇漕廊公路221号",
    "street": "廊下镇",
    "lat": 30.793949,
    "lon": 121.067155,
    "capacity_kw": 15,
    "status": "运行"
  },
  {
    "id": "PV-JS-059",
    "name": "中华村分布式光伏",
    "address": "上海市金山区廊下镇中华村漕廊公路262号",
    "street": "廊下镇",
    "lat": 30.7792,
    "lon": 121.072686,
    "capacity_kw": 14,
    "status": "运行"
  },
  {
    "id": "PV-JS-060",
    "name": "廊下镇工业光伏项目",
    "address": "上海市金山区廊下镇中华路48号",
    "street": "廊下镇",
    "lat": 30.781218,
    "lon": 121.080318,
    "capacity_kw": 129,
    "status": "运行"
  },
  {
    "id": "PV-JS-061",
    "name": "勇敢村分布式光伏",
    "address": "上海市金山区廊下镇勇敢村景乐路24号",
    "street": "廊下镇",
    "lat": 30.769586,
    "lon": 121.062965,
    "capacity_kw": 19,
    "status": "运行"
  },
  {
    "id": "PV-JS-062",
    "name": "廊下镇中华村光伏电站",
    "address": "上海市金山区廊下镇中华村漕廊公路197号",
    "street": "廊下镇",
    "lat": 30.777178,
    "lon": 121.080191,
    "capacity_kw": 25,
    "status": "运行"
  },
  {
    "id": "PV-JS-063",
    "name": "廊下镇赵家庭光伏",
    "address": "上海市金山区廊下镇勇敢路55号",
    "street": "廊下镇",
    "lat": 30.788105,
    "lon": 121.090706,
    "capacity_kw": 21,
    "status": "运行"
  },
  {
    "id": "PV-JS-064",
    "name": "勇敢村农户屋顶光伏",
    "address": "上海市金山区廊下镇勇敢村勇敢路63号",
    "street": "廊下镇",
    "lat": 30.779182,
    "lon": 121.077296,
    "capacity_kw": 29,
    "status": "运行"
  },
  {
    "id": "PV-JS-065",
    "name": "金山卫镇五金厂屋顶光伏",
    "address": "上海市金山区金山卫镇海芙路219号",
    "street": "金山卫镇",
    "lat": 30.753157,
    "lon": 121.279506,
    "capacity_kw": 171,
    "status": "运行"
  },
  {
    "id": "PV-JS-066",
    "name": "卫通村农户屋顶光伏",
    "address": "上海市金山区金山卫镇卫通村通工路267号",
    "street": "金山卫镇",
    "lat": 30.735503,
    "lon": 121.285071,
    "capacity_kw": 19,
    "status": "运行"
  },
  {
    "id": "PV-JS-067",
    "name": "社区村分布式光伏",
    "address": "上海市金山区金山卫镇社区村通工路172号",
    "street": "金山卫镇",
    "lat": 30.720599,
    "lon": 121.266429,
    "capacity_kw": 9,
    "status": "运行"
  },
  {
    "id": "PV-JS-068",
    "name": "农建村农户屋顶光伏",
    "address": "上海市金山区金山卫镇农建村南阳港路110号",
    "street": "金山卫镇",
    "lat": 30.723533,
    "lon": 121.270321,
    "capacity_kw": 22,
    "status": "运行"
  },
  {
    "id": "PV-JS-069",
    "name": "金山卫镇工业光伏项目",
    "address": "上海市金山区金山卫镇星火路200号",
    "street": "金山卫镇",
    "lat": 30.736137,
    "lon": 121.257491,
    "capacity_kw": 147,
    "status": "运行"
  },
  {
    "id": "PV-JS-070",
    "name": "金山卫镇工业光伏项目",
    "address": "上海市金山区金山卫镇通工路200号",
    "street": "金山卫镇",
    "lat": 30.736579,
    "lon": 121.29271,
    "capacity_kw": 189,
    "status": "运行"
  },
  {
    "id": "PV-JS-071",
    "name": "农建村分布式光伏",
    "address": "上海市金山区金山卫镇农建村学府路113号",
    "street": "金山卫镇",
    "lat": 30.749495,
    "lon": 121.290912,
    "capacity_kw": 17,
    "status": "运行"
  },
  {
    "id": "PV-JS-072",
    "name": "金山卫镇工业光伏项目",
    "address": "上海市金山区金山卫镇星火路85号",
    "street": "金山卫镇",
    "lat": 30.730945,
    "lon": 121.282166,
    "capacity_kw": 56,
    "status": "运行"
  },
  {
    "id": "PV-JS-073",
    "name": "陈宅屋顶光伏电站",
    "address": "上海市金山区金山卫镇金卫路43号",
    "street": "金山卫镇",
    "lat": 30.753777,
    "lon": 121.278676,
    "capacity_kw": 10,
    "status": "运行"
  },
  {
    "id": "PV-JS-074",
    "name": "农建村农户屋顶光伏",
    "address": "上海市金山区金山卫镇农建村龙翔路233号",
    "street": "金山卫镇",
    "lat": 30.719511,
    "lon": 121.270164,
    "capacity_kw": 29,
    "status": "运行"
  },
  {
    "id": "PV-JS-075",
    "name": "营房村分布式光伏",
    "address": "上海市金山区漕泾镇营房村营房路241号",
    "street": "漕泾镇",
    "lat": 30.798648,
    "lon": 121.360763,
    "capacity_kw": 16,
    "status": "运行"
  },
  {
    "id": "PV-JS-076",
    "name": "漕泾镇工业光伏项目",
    "address": "上海市金山区漕泾镇漕泾路16号",
    "street": "漕泾镇",
    "lat": 30.769569,
    "lon": 121.346645,
    "capacity_kw": 89,
    "status": "运行"
  },
  {
    "id": "PV-JS-077",
    "name": "周氏塑料公司光伏电站",
    "address": "上海市金山区漕泾镇营房路289号",
    "street": "漕泾镇",
    "lat": 30.770142,
    "lon": 121.362842,
    "capacity_kw": 92,
    "status": "运行"
  },
  {
    "id": "PV-JS-078",
    "name": "漕泾镇机械厂屋顶光伏",
    "address": "上海市金山区漕泾镇营房路84号",
    "street": "漕泾镇",
    "lat": 30.784836,
    "lon": 121.382449,
    "capacity_kw": 129,
    "status": "运行"
  },
  {
    "id": "PV-JS-079",
    "name": "漕泾镇工业光伏项目",
    "address": "上海市金山区漕泾镇蒋庄路204号",
    "street": "漕泾镇",
    "lat": 30.783632,
    "lon": 121.380221,
    "capacity_kw": 112,
    "status": "运行"
  },
  {
    "id": "PV-JS-080",
    "name": "漕泾镇居民孙户光伏",
    "address": "上海市金山区漕泾镇营房路290号",
    "street": "漕泾镇",
    "lat": 30.764676,
    "lon": 121.374799,
    "capacity_kw": 18,
    "status": "运行"
  },
  {
    "id": "PV-JS-081",
    "name": "漕泾镇光电科技厂屋顶光伏",
    "address": "上海市金山区漕泾镇海涯路7号",
    "street": "漕泾镇",
    "lat": 30.787061,
    "lon": 121.346658,
    "capacity_kw": 160,
    "status": "运行"
  },
  {
    "id": "PV-JS-082",
    "name": "营房村农户屋顶光伏",
    "address": "上海市金山区漕泾镇营房村水库村路79号",
    "street": "漕泾镇",
    "lat": 30.799032,
    "lon": 121.369323,
    "capacity_kw": 24,
    "status": "停运"
  },
  {
    "id": "PV-JS-083",
    "name": "新江村农户屋顶光伏",
    "address": "上海市金山区山阳镇新江村中兴路239号",
    "street": "山阳镇",
    "lat": 30.762328,
    "lon": 121.384827,
    "capacity_kw": 15,
    "status": "运行"
  },
  {
    "id": "PV-JS-084",
    "name": "山阳镇工业光伏项目",
    "address": "上海市金山区山阳镇向阳路143号",
    "street": "山阳镇",
    "lat": 30.764069,
    "lon": 121.396529,
    "capacity_kw": 147,
    "status": "运行"
  },
  {
    "id": "PV-JS-085",
    "name": "长兴村农户屋顶光伏",
    "address": "上海市金山区山阳镇长兴村卫阳南路94号",
    "street": "山阳镇",
    "lat": 30.743456,
    "lon": 121.383072,
    "capacity_kw": 15,
    "status": "运行"
  },
  {
    "id": "PV-JS-086",
    "name": "海光村分布式光伏",
    "address": "上海市金山区山阳镇海光村山富路285号",
    "street": "山阳镇",
    "lat": 30.741186,
    "lon": 121.387146,
    "capacity_kw": 12,
    "status": "运行"
  },
  {
    "id": "PV-JS-087",
    "name": "郭宅屋顶光伏电站",
    "address": "上海市金山区山阳镇海峰路244号",
    "street": "山阳镇",
    "lat": 30.758803,
    "lon": 121.382843,
    "capacity_kw": 5,
    "status": "运行"
  },
  {
    "id": "PV-JS-088",
    "name": "孙宅屋顶光伏电站",
    "address": "上海市金山区山阳镇海峰路157号",
    "street": "山阳镇",
    "lat": 30.733722,
    "lon": 121.372164,
    "capacity_kw": 22,
    "status": "运行"
  },
  {
    "id": "PV-JS-089",
    "name": "向阳村农户屋顶光伏",
    "address": "上海市金山区山阳镇向阳村金山嘴路170号",
    "street": "山阳镇",
    "lat": 30.751237,
    "lon": 121.38032,
    "capacity_kw": 14,
    "status": "运行"
  },
  {
    "id": "PV-JS-090",
    "name": "山阳镇新江村光伏电站",
    "address": "上海市金山区山阳镇新江村海峰路162号",
    "street": "山阳镇",
    "lat": 30.740056,
    "lon": 121.368126,
    "capacity_kw": 11,
    "status": "运行"
  },
  {
    "id": "PV-JS-091",
    "name": "黄氏光电科技公司光伏电站",
    "address": "上海市金山区山阳镇金山嘴路145号",
    "street": "山阳镇",
    "lat": 30.738655,
    "lon": 121.382668,
    "capacity_kw": 108,
    "status": "运行"
  },
  {
    "id": "PV-JS-092",
    "name": "金山食品厂屋顶光伏",
    "address": "上海市金山区金山工业区创业路65号",
    "street": "金山工业区",
    "lat": 30.747735,
    "lon": 121.242091,
    "capacity_kw": 383,
    "status": "运行"
  },
  {
    "id": "PV-JS-093",
    "name": "金山光电科技产业园光伏",
    "address": "上海市金山区金山工业区共建路53号",
    "street": "金山工业区",
    "lat": 30.744985,
    "lon": 121.267764,
    "capacity_kw": 245,
    "status": "运行"
  },
  {
    "id": "PV-JS-094",
    "name": "金山食品厂屋顶光伏",
    "address": "上海市金山区金山工业区金流路27号",
    "street": "金山工业区",
    "lat": 30.752076,
    "lon": 121.247619,
    "capacity_kw": 133,
    "status": "运行"
  },
  {
    "id": "PV-JS-095",
    "name": "金山工业区电子光伏项目",
    "address": "上海市金山区金山工业区开太路78号",
    "street": "金山工业区",
    "lat": 30.749328,
    "lon": 121.232963,
    "capacity_kw": 143,
    "status": "停运"
  },
  {
    "id": "PV-JS-096",
    "name": "上海林精密仪器科技光伏电站",
    "address": "上海市金山区金山工业区新城路116号",
    "street": "金山工业区",
    "lat": 30.773057,
    "lon": 121.234738,
    "capacity_kw": 330,
    "status": "运行"
  },
  {
    "id": "PV-JS-097",
    "name": "金山汽配厂屋顶光伏",
    "address": "上海市金山区金山工业区新城路157号",
    "street": "金山工业区",
    "lat": 30.76964,
    "lon": 121.241894,
    "capacity_kw": 412,
    "status": "运行"
  },
  {
    "id": "PV-JS-098",
    "name": "张氏食品有限公司光伏电站",
    "address": "上海市金山区金山工业区恒顺路109号",
    "street": "金山工业区",
    "lat": 30.771704,
    "lon": 121.233969,
    "capacity_kw": 222,
    "status": "运行"
  },
  {
    "id": "PV-JS-099",
    "name": "上海罗塑料科技光伏电站",
    "address": "上海市金山区金山工业区开太路210号",
    "street": "金山工业区",
    "lat": 30.740253,
    "lon": 121.233003,
    "capacity_kw": 249,
    "status": "运行"
  },
  {
    "id": "PV-JS-100",
    "name": "金山工业区机械光伏项目",
    "address": "上海市金山区金山工业区九工路233号",
    "street": "金山工业区",
    "lat": 30.734606,
    "lon": 121.241524,
    "capacity_kw": 420,
    "status": "运行"
  }
]