[
  {
    "id": "PV-JS-001",
    "name": "\u0007上海试四化学品有限公司",
    "address": "上海市金山区金山卫镇龙皓路90号",
    "street": "金山卫镇",
    "lat": 30.767625,
    "lon": 121.294961,
    "capacity_kw": 385.0,
    "status": "运行",
    "substation_id": "SS-haifeng",
    "feeder_id": null
  },
  {
    "id": "PV-JS-002",
    "name": "\u0007上海鑫程食品有限公司",
    "address": "上海市金山区金山卫镇龙皓路204号",
    "street": "金山卫镇",
    "lat": 30.722616,
    "lon": 121.286527,
    "capacity_kw": 159.0,
    "status": "运行",
    "substation_id": "SS-jinyu",
    "feeder_id": null
  },
  {
    "id": "PV-JS-003",
    "name": "\u0007上海长征富民金山制药有限公司",
    "address": "上海市金山区金山卫镇金石路604号",
    "street": "金山卫镇",
    "lat": 30.764486,
    "lon": 121.265915,
    "capacity_kw": 399.6,
    "status": "运行",
    "substation_id": "SS-huifeng",
    "feeder_id": null
  },
  {
    "id": "PV-JS-004",
    "name": "\u0007上海易旋机械制造有限公司",
    "address": "上海市金山区金山卫镇卫清路160号",
    "street": "金山卫镇",
    "lat": 30.716094,
    "lon": 121.266264,
    "capacity_kw": 300.0,
    "status": "运行",
    "substation_id": "SS-jinyu",
    "feeder_id": null
  },
  {
    "id": "PV-JS-005",
    "name": "\u0007上海海仕德物业有限公司",
    "address": "上海市金山区金山卫镇金石路100号",
    "street": "金山卫镇",
    "lat": 30.77004,
    "lon": 121.230077,
    "capacity_kw": 400.0,
    "status": "运行",
    "substation_id": "SS-huifeng",
    "feeder_id": null
  },
  {
    "id": "PV-JS-006",
    "name": "\u0007上海魏茨环保科技有限公司",
    "address": "上海市金山区金山卫镇学府路997号",
    "street": "金山卫镇",
    "lat": 30.705712,
    "lon": 121.270422,
    "capacity_kw": 220.0,
    "status": "运行",
    "substation_id": "SS-jinyu",
    "feeder_id": null
  },
  {
    "id": "PV-JS-007",
    "name": "\u0007上海金山排海工程有限公司",
    "address": "上海市金山区金山卫镇卫清路592号",
    "street": "金山卫镇",
    "lat": 30.757992,
    "lon": 121.318538,
    "capacity_kw": 1400.0,
    "status": "运行",
    "substation_id": "SS-haifeng",
    "feeder_id": null
  },
  {
    "id": "PV-JS-008",
    "name": "\u0007上海金山排海工程有限公司(二车间)北片",
    "address": "上海市金山区金山卫镇卫清路167号",
    "street": "金山卫镇",
    "lat": 30.73579,
    "lon": 121.269742,
    "capacity_kw": 2200.0,
    "status": "运行",
    "substation_id": "SS-jinyu",
    "feeder_id": null
  },
  {
    "id": "PV-JS-009",
    "name": "\u0007上海海连电动工具有限公司",
    "address": "上海市金山区金山卫镇龙胜路168号",
    "street": "金山卫镇",
    "lat": 30.756249,
    "lon": 121.237862,
    "capacity_kw": 800.0,
    "status": "运行",
    "substation_id": "SS-huifeng",
    "feeder_id": null
  },
  {
    "id": "PV-JS-010",
    "name": "\u0007上海山林食品有限公司",
    "address": "上海市金山区金山卫镇卫清路864号",
    "street": "金山卫镇",
    "lat": 30.76331,
    "lon": 121.243337,
    "capacity_kw": 357.5,
    "status": "运行",
    "substation_id": "SS-huifeng",
    "feeder_id": null
  },
  {
    "id": "PV-JS-011",
    "name": "\u0007上海芝享食品科技有限公司",
    "address": "上海市金山区金山卫镇学府路217号",
    "street": "金山卫镇",
    "lat": 30.773752,
    "lon": 121.263842,
    "capacity_kw": 2680.1,
    "status": "运行",
    "substation_id": "SS-huifeng",
    "feeder_id": null
  },
  {
    "id": "PV-JS-012",
    "name": "\u0007上海合纵重工机械有限公司",
    "address": "上海市金山区金山卫镇龙胜路672号",
    "street": "金山卫镇",
    "lat": 30.752501,
    "lon": 121.299616,
    "capacity_kw": 207.6,
    "status": "运行",
    "substation_id": "SS-jinzhan",
    "feeder_id": null
  },
  {
    "id": "PV-JS-013",
    "name": "\u0007上海金流茂业流体科技有限公司",
    "address": "上海市金山区金山卫镇龙皓路439号",
    "street": "金山卫镇",
    "lat": 30.768386,
    "lon": 121.279407,
    "capacity_kw": 216.9,
    "status": "运行",
    "substation_id": "SS-huifeng",
    "feeder_id": null
  },
  {
    "id": "PV-JS-014",
    "name": "\u0007晟爵(上海)科技有限公司",
    "address": "上海市金山区金山卫镇金石路611号",
    "street": "金山卫镇",
    "lat": 30.711627,
    "lon": 121.289398,
    "capacity_kw": 204.6,
    "status": "停运",
    "substation_id": "SS-puhua",
    "feeder_id": null
  },
  {
    "id": "PV-JS-015",
    "name": "\u0007上海穆勒四通电气股份有限公司",
    "address": "上海市金山区金山卫镇龙皓路769号",
    "street": "金山卫镇",
    "lat": 30.766218,
    "lon": 121.295527,
    "capacity_kw": 200.0,
    "status": "运行",
    "substation_id": "SS-haifeng",
    "feeder_id": null
  },
  {
    "id": "PV-JS-016",
    "name": "\u0007上海上诺科技发展有限公司",
    "address": "上海市金山区朱泾镇临源路162号",
    "street": "朱泾镇",
    "lat": 30.902165,
    "lon": 121.119652,
    "capacity_kw": 400.0,
    "status": "运行",
    "substation_id": "SS-dongxian",
    "feeder_id": null
  },
  {
    "id": "PV-JS-017",
    "name": "\u0007上海久宙化学品有限公司",
    "address": "上海市金山区朱泾镇健康路996号",
    "street": "朱泾镇",
    "lat": 30.928377,
    "lon": 121.219672,
    "capacity_kw": 399.3,
    "status": "运行",
    "substation_id": "SS-dongxian",
    "feeder_id": null
  },
  {
    "id": "PV-JS-018",
    "name": "\u0007玛科比企业(上海)有限公司",
    "address": "上海市金山区朱泾镇东林街383号",
    "street": "朱泾镇",
    "lat": 30.901996,
    "lon": 121.184746,
    "capacity_kw": 229.9,
    "status": "运行",
    "substation_id": "SS-dongxian",
    "feeder_id": null
  },
  {
    "id": "PV-JS-019",
    "name": "\u0007贝帝鲜(上海)食品有限公司",
    "address": "上海市金山区朱泾镇罗星路941号",
    "street": "朱泾镇",
    "lat": 30.893654,
    "lon": 121.206948,
    "capacity_kw": 298.6,
    "status": "停运",
    "substation_id": "SS-dongxian",
    "feeder_id": null
  },
  {
    "id": "PV-JS-020",
    "name": "\u0007上海东富龙制药设备制造有限公司",
    "address": "上海市金山区朱泾镇健康路900号",
    "street": "朱泾镇",
    "lat": 30.875622,
    "lon": 121.107602,
    "capacity_kw": 1.0,
    "status": "运行",
    "substation_id": "SS-jinghe",
    "feeder_id": null
  },
  {
    "id": "PV-JS-021",
    "name": "\u0007上海绚丽包装彩印有限公司",
    "address": "上海市金山区朱泾镇万安路88号",
    "street": "朱泾镇",
    "lat": 30.868644,
    "lon": 121.1793,
    "capacity_kw": 400.0,
    "status": "运行",
    "substation_id": "SS-dongxian",
    "feeder_id": null
  },
  {
    "id": "PV-JS-022",
    "name": "\u0007上海众智盛电能有限公司\u0007荆州分布式能源有限公司上海分公司\u0007产权转让\u0007\u00073\u0007上海华峰铝业股份有限公司",
    "address": "上海市金山区朱泾镇临源路970号",
    "street": "朱泾镇",
    "lat": 30.893095,
    "lon": 121.121511,
    "capacity_kw": 5.9,
    "status": "运行",
    "substation_id": "SS-dongxian",
    "feeder_id": null
  },
  {
    "id": "PV-JS-023",
    "name": "\u0007上海众智盛电能有限公司\u0007荆州分布式能源有限公司上海分公司\u0007产权转让\u0007\u00074\u0007凯惠药业(上海)有限公司",
    "address": "上海市金山区朱泾镇临源路988号",
    "street": "朱泾镇",
    "lat": 30.87067,
    "lon": 121.219224,
    "capacity_kw": 173.2,
    "status": "运行",
    "substation_id": "SS-zhongyi",
    "feeder_id": null
  },
  {
    "id": "PV-JS-024",
    "name": "\u0007上海亚一达船用阀业有限公司",
    "address": "上海市金山区朱泾镇东林街731号",
    "street": "朱泾镇",
    "lat": 30.893647,
    "lon": 121.200576,
    "capacity_kw": 399.0,
    "status": "运行",
    "substation_id": "SS-dongxian",
    "feeder_id": null
  },
  {
    "id": "PV-JS-025",
    "name": "\u0007上海蓝滨石化设备有限责任公司",
    "address": "上海市金山区朱泾镇万安路254号",
    "street": "朱泾镇",
    "lat": 30.885168,
    "lon": 121.172786,
    "capacity_kw": 6.0,
    "status": "运行",
    "substation_id": "SS-dongxian",
    "feeder_id": null
  },
  {
    "id": "PV-JS-026",
    "name": "\u0007唯加(上海)调味食品科技有限公司",
    "address": "上海市金山区朱泾镇东林街603号",
    "street": "朱泾镇",
    "lat": 30.876789,
    "lon": 121.182042,
    "capacity_kw": 1056.1,
    "status": "运行",
    "substation_id": "SS-dongxian",
    "feeder_id": null
  },
  {
    "id": "PV-JS-027",
    "name": "\u0007上海联中食用菌专业合作社二期",
    "address": "上海市金山区朱泾镇健康路73号",
    "street": "朱泾镇",
    "lat": 30.867644,
    "lon": 121.223541,
    "capacity_kw": 1.2,
    "status": "运行",
    "substation_id": "SS-zhongyi",
    "feeder_id": null
  },
  {
    "id": "PV-JS-028",
    "name": "\u0007上海化学工业区液空申能氢能源发展有限公司",
    "address": "上海市金山区亭林镇华亭路136号",
    "street": "亭林镇",
    "lat": 30.831281,
    "lon": 121.302748,
    "capacity_kw": 114.5,
    "status": "运行",
    "substation_id": "SS-zhangyan",
    "feeder_id": null
  },
  {
    "id": "PV-JS-029",
    "name": "\u0007上海劲霸男装服饰有限责任公司",
    "address": "上海市金山区亭林镇亭枫路195号",
    "street": "亭林镇",
    "lat": 30.826433,
    "lon": 121.300781,
    "capacity_kw": 600.2,
    "status": "运行",
    "substation_id": "SS-zhangyan",
    "feeder_id": null
  },
  {
    "id": "PV-JS-030",
    "name": "\u0007上海金工企业发展有限公司",
    "address": "上海市金山区亭林镇亭枫路479号",
    "street": "亭林镇",
    "lat": 30.883277,
    "lon": 121.282017,
    "capacity_kw": 399.4,
    "status": "运行",
    "substation_id": "SS-tongkai",
    "feeder_id": null
  },
  {
    "id": "PV-JS-031",
    "name": "\u0007上海同百建设科技股份有限公司",
    "address": "上海市金山区亭林镇复兴路63号",
    "street": "亭林镇",
    "lat": 30.80063,
    "lon": 121.329318,
    "capacity_kw": 3999.6,
    "status": "运行",
    "substation_id": "SS-haifeng",
    "feeder_id": null
  },
  {
    "id": "PV-JS-032",
    "name": "\u0007上海泽亮箱包有限公司",
    "address": "上海市金山区亭林镇松金路474号",
    "street": "亭林镇",
    "lat": 30.85453,
    "lon": 121.292703,
    "capacity_kw": 301.4,
    "status": "运行",
    "substation_id": "SS-tongkai",
    "feeder_id": null
  },
  {
    "id": "PV-JS-033",
    "name": "\u0007上海励益铝业有限公司",
    "address": "上海市金山区亭林镇亭枫路714号",
    "street": "亭林镇",
    "lat": 30.90037,
    "lon": 121.297941,
    "capacity_kw": 399.3,
    "status": "运行",
    "substation_id": "SS-tinglin",
    "feeder_id": null
  },
  {
    "id": "PV-JS-034",
    "name": "\u0007上海艾创包装科技有限公司",
    "address": "上海市金山区亭林镇松金路223号",
    "street": "亭林镇",
    "lat": 30.891398,
    "lon": 121.250474,
    "capacity_kw": 399.6,
    "status": "运行",
    "substation_id": "SS-tongkai",
    "feeder_id": null
  },
  {
    "id": "PV-JS-035",
    "name": "\u0007上海亿隆康复护理设备有限公司",
    "address": "上海市金山区亭林镇松金路59号",
    "street": "亭林镇",
    "lat": 30.872372,
    "lon": 121.311726,
    "capacity_kw": 398.0,
    "status": "停运",
    "substation_id": "SS-tongkai",
    "feeder_id": null
  },
  {
    "id": "PV-JS-036",
    "name": "\u0007上海富彭展览展示服务有限公司金山富彭",
    "address": "上海市金山区亭林镇华亭路162号",
    "street": "亭林镇",
    "lat": 30.85838,
    "lon": 121.371365,
    "capacity_kw": 0.5,
    "status": "停运",
    "substation_id": "SS-tinglin",
    "feeder_id": null
  },
  {
    "id": "PV-JS-037",
    "name": "\u0007上海建科商务服务有限公司",
    "address": "上海市金山区亭林镇复兴路610号",
    "street": "亭林镇",
    "lat": 30.862622,
    "lon": 121.360606,
    "capacity_kw": 601.8,
    "status": "停运",
    "substation_id": "SS-tinglin",
    "feeder_id": null
  },
  {
    "id": "PV-JS-038",
    "name": "\u0007上海宁峰电器实业有限公司",
    "address": "上海市金山区亭林镇华亭路253号",
    "street": "亭林镇",
    "lat": 30.910995,
    "lon": 121.28984,
    "capacity_kw": 399.0,
    "status": "运行",
    "substation_id": "SS-tinglin",
    "feeder_id": null
  },
  {
    "id": "PV-JS-039",
    "name": "\u0007上海顺达通用机械有限公司",
    "address": "上海市金山区亭林镇松金路958号",
    "street": "亭林镇",
    "lat": 30.883057,
    "lon": 121.315368,
    "capacity_kw": 78.8,
    "status": "运行",
    "substation_id": "SS-tinglin",
    "feeder_id": null
  },
  {
    "id": "PV-JS-040",
    "name": "\u0007上海捷腾顺工贸有限公司",
    "address": "上海市金山区枫泾镇北大街219号",
    "street": "枫泾镇",
    "lat": 30.893255,
    "lon": 121.001281,
    "capacity_kw": 163.8,
    "status": "运行",
    "substation_id": "SS-jinghe",
    "feeder_id": null
  },
  {
    "id": "PV-JS-041",
    "name": "\u0007上海高凡服装有限公司",
    "address": "上海市金山区枫泾镇枫阳路901号",
    "street": "枫泾镇",
    "lat": 30.833681,
    "lon": 121.035341,
    "capacity_kw": 799.1,
    "status": "运行",
    "substation_id": "SS-jinghe",
    "feeder_id": null
  },
  {
    "id": "PV-JS-042",
    "name": "\u0007上海玛九新能源科技有限公司",
    "address": "上海市金山区枫泾镇北大街721号",
    "street": "枫泾镇",
    "lat": 30.854787,
    "lon": 121.047538,
    "capacity_kw": 2099.0,
    "status": "运行",
    "substation_id": "SS-jinghe",
    "feeder_id": null
  },
  {
    "id": "PV-JS-043",
    "name": "\u0007上海维盛新材料有限公司",
    "address": "上海市金山区枫泾镇北大街307号",
    "street": "枫泾镇",
    "lat": 30.888543,
    "lon": 121.078953,
    "capacity_kw": 1564.9,
    "status": "运行",
    "substation_id": "SS-jinghe",
    "feeder_id": null
  },
  {
    "id": "PV-JS-044",
    "name": "\u0007上海康利特种丝有限公司北区厂房",
    "address": "上海市金山区枫泾镇新枫路620号",
    "street": "枫泾镇",
    "lat": 30.918082,
    "lon": 121.008867,
    "capacity_kw": 1140.5,
    "status": "运行",
    "substation_id": "SS-jinghe",
    "feeder_id": null
  },
  {
    "id": "PV-JS-045",
    "name": "\u0007上海宝柏新材料股份有限公司",
    "address": "上海市金山区枫泾镇新枫路518号",
    "street": "枫泾镇",
    "lat": 30.862798,
    "lon": 121.081638,
    "capacity_kw": 2311.1,
    "status": "运行",
    "substation_id": "SS-jinghe",
    "feeder_id": null
  },
  {
    "id": "PV-JS-046",
    "name": "\u0007上海振初包装有限公司",
    "address": "上海市金山区枫泾镇新枫路46号",
    "street": "枫泾镇",
    "lat": 30.828125,
    "lon": 121.04554,
    "capacity_kw": 400.0,
    "status": "停运",
    "substation_id": "SS-jinghe",
    "feeder_id": null
  },
  {
    "id": "PV-JS-047",
    "name": "\u0007上海汇众汽车制造有限公司金山工厂",
    "address": "上海市金山区枫泾镇枫阳路115号",
    "street": "枫泾镇",
    "lat": 30.891689,
    "lon": 121.046103,
    "capacity_kw": 294.6,
    "status": "停运",
    "substation_id": "SS-jinghe",
    "feeder_id": null
  },
  {
    "id": "PV-JS-048",
    "name": "\u0007上海金山万达广场商业管理有限公司",
    "address": "上海市金山区枫泾镇北大街566号",
    "street": "枫泾镇",
    "lat": 30.890847,
    "lon": 121.101757,
    "capacity_kw": 916.9,
    "status": "运行",
    "substation_id": "SS-jinghe",
    "feeder_id": null
  },
  {
    "id": "PV-JS-049",
    "name": "\u0007中航奥莱洗涤服务(上海)有限公司",
    "address": "上海市金山区枫泾镇枫阳路921号",
    "street": "枫泾镇",
    "lat": 30.832988,
    "lon": 121.029768,
    "capacity_kw": 399.9,
    "status": "运行",
    "substation_id": "SS-jinghe",
    "feeder_id": null
  },
  {
    "id": "PV-JS-050",
    "name": "\u0007上海远创机械科技有限公司",
    "address": "上海市金山区山阳镇海利路799号",
    "street": "山阳镇",
    "lat": 30.774465,
    "lon": 121.376096,
    "capacity_kw": 250.0,
    "status": "运行",
    "substation_id": "SS-shanyang",
    "feeder_id": null
  },
  {
    "id": "PV-JS-051",
    "name": "\u0007上海华峰铝业股份有限公司",
    "address": "上海市金山区山阳镇中兴路26号",
    "street": "山阳镇",
    "lat": 30.786081,
    "lon": 121.336798,
    "capacity_kw": 5.9,
    "status": "运行",
    "substation_id": "SS-shanyang",
    "feeder_id": null
  },
  {
    "id": "PV-JS-052",
    "name": "\u0007上海富温工贸有限公司",
    "address": "上海市金山区山阳镇板桥路274号",
    "street": "山阳镇",
    "lat": 30.74781,
    "lon": 121.376334,
    "capacity_kw": 3413.2,
    "status": "运行",
    "substation_id": "SS-shanyang",
    "feeder_id": null
  },
  {
    "id": "PV-JS-053",
    "name": "\u0007上海冠宝印刷科技有限公司",
    "address": "上海市金山区山阳镇山阳路880号",
    "street": "山阳镇",
    "lat": 30.776359,
    "lon": 121.353282,
    "capacity_kw": 1972.2,
    "status": "运行",
    "substation_id": "SS-shanyang",
    "feeder_id": null
  },
  {
    "id": "PV-JS-054",
    "name": "\u0007南方寝饰科技有限公司",
    "address": "上海市金山区山阳镇板桥路229号",
    "street": "山阳镇",
    "lat": 30.741692,
    "lon": 121.388417,
    "capacity_kw": 2999.9,
    "status": "停运",
    "substation_id": "SS-shanyang",
    "feeder_id": null
  },
  {
    "id": "PV-JS-055",
    "name": "\u0007上海杰桢海洋工程有限公司",
    "address": "上海市金山区山阳镇中兴路696号",
    "street": "山阳镇",
    "lat": 30.734738,
    "lon": 121.374054,
    "capacity_kw": 4799.9,
    "status": "运行",
    "substation_id": "SS-nanyangwan",
    "feeder_id": null
  },
  {
    "id": "PV-JS-056",
    "name": "\u0007上海美宝置业有限公司",
    "address": "上海市金山区山阳镇中兴路354号",
    "street": "山阳镇",
    "lat": 30.733391,
    "lon": 121.331291,
    "capacity_kw": 5999.8,
    "status": "运行",
    "substation_id": "SS-nanyangwan",
    "feeder_id": null
  },
  {
    "id": "PV-JS-057",
    "name": "\u0007玛科比企业（上海）有限公司",
    "address": "上海市金山区山阳镇向阳路119号",
    "street": "山阳镇",
    "lat": 30.738144,
    "lon": 121.371224,
    "capacity_kw": 5999.8,
    "status": "运行",
    "substation_id": "SS-shanyang",
    "feeder_id": null
  },
  {
    "id": "PV-JS-058",
    "name": "第一实验小学",
    "address": "上海市金山区山阳镇中兴路2号",
    "street": "山阳镇",
    "lat": 30.764066,
    "lon": 121.343029,
    "capacity_kw": 210.0,
    "status": "运行",
    "substation_id": "SS-shanyang",
    "feeder_id": null
  },
  {
    "id": "PV-JS-059",
    "name": "实验幼儿园（隆安部）",
    "address": "上海市金山区山阳镇海利路639号",
    "street": "山阳镇",
    "lat": 30.726644,
    "lon": 121.357193,
    "capacity_kw": 81.2,
    "status": "运行",
    "substation_id": "SS-nanyangwan",
    "feeder_id": null
  },
  {
    "id": "PV-JS-060",
    "name": "朱泾罗星幼儿园",
    "address": "上海市金山区吕巷镇进贤路568号",
    "street": "吕巷镇",
    "lat": 30.828583,
    "lon": 121.188865,
    "capacity_kw": 193.1,
    "status": "运行",
    "substation_id": "SS-langping",
    "feeder_id": null
  },
  {
    "id": "PV-JS-061",
    "name": "\u0007上海杰西衬衫有限公司",
    "address": "上海市金山区吕巷镇荣昌路583号",
    "street": "吕巷镇",
    "lat": 30.849679,
    "lon": 121.27876,
    "capacity_kw": 0.4,
    "status": "运行",
    "substation_id": "SS-tongkai",
    "feeder_id": null
  },
  {
    "id": "PV-JS-062",
    "name": "\u0007恩喜村（上海）食品有限公司二期西区",
    "address": "上海市金山区吕巷镇建新路453号",
    "street": "吕巷镇",
    "lat": 30.842044,
    "lon": 121.23419,
    "capacity_kw": 2785.2,
    "status": "运行",
    "substation_id": "SS-zhongyi",
    "feeder_id": null
  },
  {
    "id": "PV-JS-063",
    "name": "\u0007恩喜村（上海）食品有限公司二期东区",
    "address": "上海市金山区吕巷镇进贤路96号",
    "street": "吕巷镇",
    "lat": 30.836981,
    "lon": 121.23028,
    "capacity_kw": 1520.8,
    "status": "运行",
    "substation_id": "SS-zhongyi",
    "feeder_id": null
  },
  {
    "id": "PV-JS-064",
    "name": "\u0007上海金山日粉食品有限公司",
    "address": "上海市金山区吕巷镇茸卫路826号",
    "street": "吕巷镇",
    "lat": 30.85547,
    "lon": 121.23744,
    "capacity_kw": 542.2,
    "status": "运行",
    "substation_id": "SS-zhongyi",
    "feeder_id": null
  },
  {
    "id": "PV-JS-065",
    "name": "\u0007上海光明荷斯坦饲料有限公司",
    "address": "上海市金山区吕巷镇璜溪路467号",
    "street": "吕巷镇",
    "lat": 30.833819,
    "lon": 121.269227,
    "capacity_kw": 341.9,
    "status": "运行",
    "substation_id": "SS-zhongyi",
    "feeder_id": null
  },
  {
    "id": "PV-JS-066",
    "name": "\u0007东和劳动保护用品（上海）有限公司",
    "address": "上海市金山区吕巷镇建新路507号",
    "street": "吕巷镇",
    "lat": 30.845949,
    "lon": 121.151505,
    "capacity_kw": 1000.0,
    "status": "运行",
    "substation_id": "SS-dongxian",
    "feeder_id": null
  },
  {
    "id": "PV-JS-067",
    "name": "\u0007上海热处理厂有限公司二期屋顶",
    "address": "上海市金山区吕巷镇璜溪路798号",
    "street": "吕巷镇",
    "lat": 30.808123,
    "lon": 121.240104,
    "capacity_kw": 592.5,
    "status": "运行",
    "substation_id": "SS-zhongyi",
    "feeder_id": null
  },
  {
    "id": "PV-JS-068",
    "name": "\u0007上海顺拓包装制品有限公司",
    "address": "上海市金山区吕巷镇茸卫路940号",
    "street": "吕巷镇",
    "lat": 30.837178,
    "lon": 121.125597,
    "capacity_kw": 399.6,
    "status": "运行",
    "substation_id": "SS-langping",
    "feeder_id": null
  },
  {
    "id": "PV-JS-069",
    "name": "金一东路391号（金一东路91号）集中办公点光伏合同能源管理服务项目--",
    "address": "上海市金山区吕巷镇荣昌路573号",
    "street": "吕巷镇",
    "lat": 30.832354,
    "lon": 121.260546,
    "capacity_kw": 234.0,
    "status": "运行",
    "substation_id": "SS-zhongyi",
    "feeder_id": null
  },
  {
    "id": "PV-JS-070",
    "name": "\u0007棕榈泉（上海）新材料科技有限公司",
    "address": "上海市金山区漕泾镇古岗路437号",
    "street": "漕泾镇",
    "lat": 30.808662,
    "lon": 121.430458,
    "capacity_kw": 2103.9,
    "status": "运行",
    "substation_id": "SS-caojing",
    "feeder_id": null
  },
  {
    "id": "PV-JS-071",
    "name": "\u0007上海飞龙室内装饰配套有限公司",
    "address": "上海市金山区漕泾镇金漕路770号",
    "street": "漕泾镇",
    "lat": 30.820964,
    "lon": 121.403149,
    "capacity_kw": 2.0,
    "status": "运行",
    "substation_id": "SS-caojing",
    "feeder_id": null
  },
  {
    "id": "PV-JS-072",
    "name": "\u0007上海科华热力管道有限公司",
    "address": "上海市金山区漕泾镇古岗路497号",
    "street": "漕泾镇",
    "lat": 30.81101,
    "lon": 121.435654,
    "capacity_kw": 399.6,
    "status": "运行",
    "substation_id": "SS-caojing",
    "feeder_id": null
  },
  {
    "id": "PV-JS-073",
    "name": "\u0007恒信源（上海）实业有限公司（北区）",
    "address": "上海市金山区漕泾镇共建路155号",
    "street": "漕泾镇",
    "lat": 30.781151,
    "lon": 121.410459,
    "capacity_kw": 1997.8,
    "status": "运行",
    "substation_id": "SS-caojing",
    "feeder_id": null
  },
  {
    "id": "PV-JS-074",
    "name": "\u0007上海中振有色金属铸造有限公司",
    "address": "上海市金山区漕泾镇中心路425号",
    "street": "漕泾镇",
    "lat": 30.816296,
    "lon": 121.429023,
    "capacity_kw": 198.9,
    "status": "运行",
    "substation_id": "SS-caojing",
    "feeder_id": null
  },
  {
    "id": "PV-JS-075",
    "name": "\u0007上海三羽电器有限公司",
    "address": "上海市金山区漕泾镇共建路853号",
    "street": "漕泾镇",
    "lat": 30.802084,
    "lon": 121.396573,
    "capacity_kw": 199.5,
    "status": "运行",
    "substation_id": "SS-caojing",
    "feeder_id": null
  },
  {
    "id": "PV-JS-076",
    "name": "\u0007上海克兰传动设备有限公司",
    "address": "上海市金山区漕泾镇中心路966号",
    "street": "漕泾镇",
    "lat": 30.823025,
    "lon": 121.392621,
    "capacity_kw": 399.6,
    "status": "运行",
    "substation_id": "SS-caojing",
    "feeder_id": null
  },
  {
    "id": "PV-JS-077",
    "name": "\u0007恒信源（上海）实业有限公司（南区）",
    "address": "上海市金山区漕泾镇古岗路920号",
    "street": "漕泾镇",
    "lat": 30.821327,
    "lon": 121.411127,
    "capacity_kw": 2173.3,
    "status": "运行",
    "substation_id": "SS-caojing",
    "feeder_id": null
  },
  {
    "id": "PV-JS-078",
    "name": "\u0007上海鹿华智能科技有限公司",
    "address": "上海市金山区廊下镇漕廊路399号",
    "street": "廊下镇",
    "lat": 30.785525,
    "lon": 121.180449,
    "capacity_kw": 400.0,
    "status": "运行",
    "substation_id": "SS-langping",
    "feeder_id": null
  },
  {
    "id": "PV-JS-079",
    "name": "\u0007上海荣美农业科技有限公司",
    "address": "上海市金山区廊下镇景乐路861号",
    "street": "廊下镇",
    "lat": 30.810912,
    "lon": 121.176418,
    "capacity_kw": 799.2,
    "status": "运行",
    "substation_id": "SS-langping",
    "feeder_id": null
  },
  {
    "id": "PV-JS-080",
    "name": "\u0007上海扬绮实业有限公司",
    "address": "上海市金山区廊下镇景尚路679号",
    "street": "廊下镇",
    "lat": 30.774897,
    "lon": 121.175101,
    "capacity_kw": 399.6,
    "status": "停运",
    "substation_id": "SS-langping",
    "feeder_id": null
  },
  {
    "id": "PV-JS-081",
    "name": "\u0007上海丰利时装有限公司",
    "address": "上海市金山区廊下镇勇敢路187号",
    "street": "廊下镇",
    "lat": 30.808902,
    "lon": 121.14206,
    "capacity_kw": 399.6,
    "status": "停运",
    "substation_id": "SS-langping",
    "feeder_id": null
  },
  {
    "id": "PV-JS-082",
    "name": "\u0007上海盈兹无纺布有限公司",
    "address": "上海市金山区廊下镇中华路346号",
    "street": "廊下镇",
    "lat": 30.794343,
    "lon": 121.151776,
    "capacity_kw": 1316.2,
    "status": "运行",
    "substation_id": "SS-langping",
    "feeder_id": null
  },
  {
    "id": "PV-JS-083",
    "name": "\u0007上海奥威日化有限公司（南区）",
    "address": "上海市金山区廊下镇勇敢路259号",
    "street": "廊下镇",
    "lat": 30.794344,
    "lon": 121.220889,
    "capacity_kw": 1813.1,
    "status": "运行",
    "substation_id": "SS-langping",
    "feeder_id": null
  },
  {
    "id": "PV-JS-084",
    "name": "\u0007上海华品服饰企业有限公司",
    "address": "上海市金山区廊下镇漕廊路975号",
    "street": "廊下镇",
    "lat": 30.79938,
    "lon": 121.220507,
    "capacity_kw": 133.4,
    "status": "运行",
    "substation_id": "SS-langping",
    "feeder_id": null
  },
  {
    "id": "PV-JS-085",
    "name": "\u0007上海明罗实业有限公司",
    "address": "上海市金山区廊下镇漕廊路773号",
    "street": "廊下镇",
    "lat": 30.809311,
    "lon": 121.224627,
    "capacity_kw": 601.3,
    "status": "停运",
    "substation_id": "SS-zhongyi",
    "feeder_id": null
  },
  {
    "id": "PV-JS-086",
    "name": "\u0007上海路盾道路材料有限公司",
    "address": "上海市金山区张堰镇锦堰路157号",
    "street": "张堰镇",
    "lat": 30.783189,
    "lon": 121.315161,
    "capacity_kw": 997.1,
    "status": "运行",
    "substation_id": "SS-haifeng",
    "feeder_id": null
  },
  {
    "id": "PV-JS-087",
    "name": "\u0007上海顶皓新材料科技有限公司",
    "address": "上海市金山区张堰镇留溪路477号",
    "street": "张堰镇",
    "lat": 30.797626,
    "lon": 121.251921,
    "capacity_kw": 288.5,
    "status": "运行",
    "substation_id": "SS-zhangyan",
    "feeder_id": null
  },
  {
    "id": "PV-JS-088",
    "name": "\u0007上海神马帘子布有限责任公司",
    "address": "上海市金山区张堰镇锦堰路987号",
    "street": "张堰镇",
    "lat": 30.816342,
    "lon": 121.25658,
    "capacity_kw": 740.8,
    "status": "运行",
    "substation_id": "SS-zhangyan",
    "feeder_id": null
  },
  {
    "id": "PV-JS-089",
    "name": "\u0007上海达纳铜铝业有限公司",
    "address": "上海市金山区张堰镇东贤路607号",
    "street": "张堰镇",
    "lat": 30.792719,
    "lon": 121.304324,
    "capacity_kw": 1592.6,
    "status": "运行",
    "substation_id": "SS-zhangyan",
    "feeder_id": null
  },
  {
    "id": "PV-JS-090",
    "name": "\u0007上海派瑞特塑业有限公司",
    "address": "上海市金山区张堰镇秦望路871号",
    "street": "张堰镇",
    "lat": 30.807432,
    "lon": 121.250831,
    "capacity_kw": 990.0,
    "status": "运行",
    "substation_id": "SS-zhangyan",
    "feeder_id": null
  },
  {
    "id": "PV-JS-091",
    "name": "\u0007上海芷晶实业有限公司",
    "address": "上海市金山区张堰镇锦堰路439号",
    "street": "张堰镇",
    "lat": 30.80352,
    "lon": 121.245523,
    "capacity_kw": 1200.0,
    "status": "运行",
    "substation_id": "SS-zhangyan",
    "feeder_id": null
  },
  {
    "id": "PV-JS-092",
    "name": "\u0007上海信谊金朱药业有限公司二期",
    "address": "上海市金山区张堰镇东贤路870号",
    "street": "张堰镇",
    "lat": 30.771811,
    "lon": 121.298437,
    "capacity_kw": 139.2,
    "status": "运行",
    "substation_id": "SS-haifeng",
    "feeder_id": null
  },
  {
    "id": "PV-JS-093",
    "name": "\u0007上海居逸源恒物业管理有限公司",
    "address": "上海市金山区张堰镇秦望路651号",
    "street": "张堰镇",
    "lat": 30.798688,
    "lon": 121.279764,
    "capacity_kw": 759.9,
    "status": "运行",
    "substation_id": "SS-zhangyan",
    "feeder_id": null
  },
  {
    "id": "PV-JS-094",
    "name": "\u0007上海板换机械设备有限公司二期",
    "address": "上海市金山区石化街道卫零路631号",
    "street": "石化街道",
    "lat": 30.698351,
    "lon": 121.313574,
    "capacity_kw": 398.9,
    "status": "运行",
    "substation_id": "SS-puhua",
    "feeder_id": null
  },
  {
    "id": "PV-JS-095",
    "name": "\u0007上海玛一新能源科技有限公司",
    "address": "上海市金山区石化街道卫新路846号",
    "street": "石化街道",
    "lat": 30.715348,
    "lon": 121.310305,
    "capacity_kw": 80.0,
    "status": "运行",
    "substation_id": "SS-puhua",
    "feeder_id": null
  },
  {
    "id": "PV-JS-096",
    "name": "\u0007上海澎博钛白粉有限公司",
    "address": "上海市金山区石化街道石化路286号",
    "street": "石化街道",
    "lat": 30.702682,
    "lon": 121.341781,
    "capacity_kw": 1000.4,
    "status": "运行",
    "substation_id": "SS-nanyangwan",
    "feeder_id": null
  },
  {
    "id": "PV-JS-097",
    "name": "\u0007方正阀门集团上海有限公司",
    "address": "上海市金山区石化街道隆安路685号",
    "street": "石化街道",
    "lat": 30.701531,
    "lon": 121.308698,
    "capacity_kw": 880.0,
    "status": "运行",
    "substation_id": "SS-puhua",
    "feeder_id": null
  },
  {
    "id": "PV-JS-098",
    "name": "\u0007上海振大氟塑有限公司",
    "address": "上海市金山区石化街道卫零路349号",
    "street": "石化街道",
    "lat": 30.698619,
    "lon": 121.287106,
    "capacity_kw": 150.0,
    "status": "运行",
    "substation_id": "SS-puhua",
    "feeder_id": null
  },
  {
    "id": "PV-JS-099",
    "name": "\u0007上海未来岛半导体技术发展有限公司",
    "address": "上海市金山区石化街道隆安路11号",
    "street": "石化街道",
    "lat": 30.718071,
    "lon": 121.344208,
    "capacity_kw": 1200.0,
    "status": "运行",
    "substation_id": "SS-nanyangwan",
    "feeder_id": null
  },
  {
    "id": "PV-JS-100",
    "name": "\u0007上海美驰门窗制造有限公司",
    "address": "上海市金山区石化街道卫新路501号",
    "street": "石化街道",
    "lat": 30.699051,
    "lon": 121.289606,
    "capacity_kw": 400.0,
    "status": "运行",
    "substation_id": "SS-puhua",
    "feeder_id": null
  }
]